[
  {
    "id": "bar-raval",
    "name": "Bar Raval",
    "lat": 43.6558305,
    "lng": -79.409924,
    "category": "drink",
    "notes": "Simple but excellent Spanish-style tapas, excellent drinks.",
    "photo": null,
    "published": true,
    "address": "505 College St, Toronto, ON M6J 2J3",
    "googleMapsUrl": "https://www.google.com/maps/search/?api=1&query=Bar+Raval+Toronto"
  },
  {
    "id": "dannys-pizza-tavern",
    "name": "Danny's Pizza Tavern",
    "lat": 43.6611,
    "lng": -79.4382,
    "category": "eat",
    "notes": "One of my faves — casual tavern-style pizza. Try the cacio e pepe!",
    "photo": null,
    "published": true,
    "address": "1290 Bloor St W, Toronto, ON M6H 1N9",
    "googleMapsUrl": "https://www.google.com/maps/search/?api=1&query=Danny%27s+Pizza+Tavern+Toronto"
  },
  {
    "id": "pizzeria-badiali",
    "name": "Pizzeria Badiali",
    "lat": 43.6549,
    "lng": -79.3878,
    "category": "eat",
    "notes": "\"Best pizza in Toronto\"… debatable but very good.",
    "photo": null,
    "published": true,
    "address": "181 Dundas St W, Toronto, ON M5G 1C7",
    "googleMapsUrl": "https://www.google.com/maps/search/?api=1&query=Pizzeria+Badiali+Toronto"
  },
  {
    "id": "pai-northern-thai",
    "name": "PAI Northern Thai Kitchen",
    "lat": 43.6486,
    "lng": -79.3884,
    "category": "eat",
    "notes": "Michelin-star Thai food. A little overhyped — prepare to wait.",
    "photo": null,
    "published": true,
    "address": "18 Duncan St, Toronto, ON M5H 3G8",
    "googleMapsUrl": "https://www.google.com/maps/search/?api=1&query=PAI+Northern+Thai+Kitchen+Toronto"
  },
  {
    "id": "centre-island",
    "name": "Centre Island",
    "lat": 43.6228766,
    "lng": -79.3942999,
    "category": "walk",
    "notes": "The most central of Toronto's islands. Lovely for walking, biking, a quick (overpriced) bite, or a chill beach (avoid the nudist beach… or don't, if you're into that).",
    "photo": null,
    "published": true,
    "address": "Centre Island, Toronto, ON",
    "googleMapsUrl": "https://www.google.com/maps/search/?api=1&query=Centre+Island+Toronto"
  },
  {
    "id": "koh-lipe-thai-kitchen",
    "name": "Koh Lipe Thai Kitchen",
    "lat": 43.6486,
    "lng": -79.4495,
    "category": "eat",
    "notes": "Excellent Thai food. (Pin location approximate — verify and adjust.)",
    "photo": null,
    "published": true,
    "address": "Toronto, ON",
    "googleMapsUrl": "https://www.google.com/maps/search/?api=1&query=Koh+Lipe+Thai+Kitchen+Toronto"
  },
  {
    "id": "royal-ontario-museum",
    "name": "Royal Ontario Museum",
    "lat": 43.6677,
    "lng": -79.3947,
    "category": "culture",
    "notes": "Our #1 museum.",
    "photo": null,
    "published": true,
    "address": "100 Queens Park, Toronto, ON M5S 2C6",
    "googleMapsUrl": "https://www.google.com/maps/search/?api=1&query=Royal+Ontario+Museum"
  },
  {
    "id": "little-canada",
    "name": "Little Canada",
    "lat": 43.6567118,
    "lng": -79.3809062,
    "category": "culture",
    "notes": "Relatively new tourist attraction — see all of Canada in one shot.",
    "photo": null,
    "published": true,
    "address": "10 Dundas St E, Toronto, ON M5B 2G9",
    "googleMapsUrl": "https://www.google.com/maps/search/?api=1&query=Little+Canada+Toronto"
  },
  {
    "id": "sunnys-chinese",
    "name": "Sunny's Chinese",
    "lat": 43.6443,
    "lng": -79.4197,
    "category": "eat",
    "notes": "Great modern Chinese from different regions of China. Vibey, expensive, and in a really cool / multicultural neighbourhood (Kensington Market).",
    "photo": null,
    "published": true,
    "address": "82 Ossington Ave, Toronto, ON M6J 2Y8",
    "googleMapsUrl": "https://www.google.com/maps/search/?api=1&query=Sunny%27s+Chinese+Toronto"
  },
  {
    "id": "bernhardts",
    "name": "Bernhardt's",
    "lat": 43.6498,
    "lng": -79.4233,
    "category": "eat",
    "notes": "My favourite dinner food in the city.",
    "photo": null,
    "published": true,
    "address": "202 Dovercourt Rd, Toronto, ON M6J 3C8",
    "googleMapsUrl": "https://www.google.com/maps/search/?api=1&query=Bernhardt%27s+Toronto"
  },
  {
    "id": "union-restaurant",
    "name": "Union Restaurant",
    "lat": 43.6458348,
    "lng": -79.4195977,
    "category": "eat",
    "notes": "My favourite brunch in the city.",
    "photo": null,
    "published": true,
    "address": "72 Ossington Ave, Toronto, ON M6J 2Z2",
    "googleMapsUrl": "https://www.google.com/maps/search/?api=1&query=Union+Restaurant+Ossington+Toronto"
  },
  {
    "id": "pho-tien-thanh",
    "name": "Pho Tien Thanh",
    "lat": 43.6454805,
    "lng": -79.4191548,
    "category": "eat",
    "notes": "Widely regarded as the best pho in the city.",
    "photo": null,
    "published": true,
    "address": "57 Ossington Ave, Toronto, ON M6J 2Y9",
    "googleMapsUrl": "https://www.google.com/maps/search/?api=1&query=Pho+Tien+Thanh+Toronto"
  },
  {
    "id": "found-coffee-bellwoods",
    "name": "Found Coffee | Bellwoods",
    "lat": 43.6470857,
    "lng": -79.4169554,
    "category": "coffee",
    "notes": "My favourite coffee shop in the city.",
    "photo": null,
    "published": true,
    "address": "189 Shaw St, Toronto, ON M6J 2W5",
    "googleMapsUrl": "https://www.google.com/maps/search/?api=1&query=Found+Coffee+Bellwoods+Toronto"
  },
  {
    "id": "trinity-bellwoods-park",
    "name": "Trinity Bellwoods Park",
    "lat": 43.647644,
    "lng": -79.4139122,
    "category": "walk",
    "notes": "Nice, central park with good vibes (drinking allowed!).",
    "photo": null,
    "published": true,
    "address": "790 Queen St W, Toronto, ON M6J 1G3",
    "googleMapsUrl": "https://www.google.com/maps/search/?api=1&query=Trinity+Bellwoods+Park+Toronto"
  },
  {
    "id": "high-park",
    "name": "High Park",
    "lat": 43.6462813,
    "lng": -79.4637945,
    "category": "walk",
    "notes": "Great park for chilling and walking — just a little far from the core.",
    "photo": null,
    "published": true,
    "address": "1873 Bloor St W, Toronto, ON M6R 2Z3",
    "googleMapsUrl": "https://www.google.com/maps/search/?api=1&query=High+Park+Toronto"
  }
]
